{
  "rotaList": [
    {
      "rota": {
        "dias": [
          {
            "date": "01/01/2020",
            "localList": [
              {
                "address": {
                  "city": "string",
                  "country": "string",
                  "id": 0,
                  "neighborhood": "string",
                  "postCode": "string",
                  "state": "string",
                  "street": "string"
                },
                "id": 0,
                "idFourSquare": "string",
                "idTripAdvisor": "string",
                "latitude": "string",
                "longitude": "string",
                "name": "string",
                "phoneNumber": "string",
                "photoList": [
                  {
                    "id": 0,
                    "local": {},
                    "photoUrl": "string"
                  }
                ],
                "price": "string",
                "priceLevel": "string",
                "rating": "string"
              }
            ]
          }
        ]
      }
    },
    {
      "rota": {
        "dias": [
          {
            "localList": [
              {
                "address": {
                  "city": "string",
                  "country": "string",
                  "id": 0,
                  "neighborhood": "string",
                  "postCode": "string",
                  "state": "string",
                  "street": "string"
                },
                "id": 0,
                "idFourSquare": "string",
                "idTripAdvisor": "string",
                "latitude": "string",
                "longitude": "string",
                "name": "string",
                "phoneNumber": "string",
                "photoList": [
                  {
                    "id": 0,
                    "local": {},
                    "photoUrl": "string"
                  }
                ],
                "price": "string",
                "priceLevel": "string",
                "rating": "string"
              }
            ]
          }
        ]
      }
    },
    {
      "rota": {
        "dias": [
          {
            "localList": [
              {
                "address": {
                  "city": "string",
                  "country": "string",
                  "id": 0,
                  "neighborhood": "string",
                  "postCode": "string",
                  "state": "string",
                  "street": "string"
                },
                "id": 0,
                "idFourSquare": "string",
                "idTripAdvisor": "string",
                "latitude": "string",
                "longitude": "string",
                "name": "string",
                "phoneNumber": "string",
                "photoList": [
                  {
                    "id": 0,
                    "local": {},
                    "photoUrl": "string"
                  }
                ],
                "price": "string",
                "priceLevel": "string",
                "rating": "string"
              }
            ]
          }
        ]
      }
    }
  ]
}